[{"photo":"https://s3.amazonaws.com/uifaces/faces/twitter/kolage/128.jpg","name":"Alex Rodriguez","speciality":"Division","location":{"name":"Howell, Sanford and Huel","address":"622 Monahan Mountain","city":"Alf mouth","state":"CO","zip":"73920-5725","geoLat":"49.6710","geoLong":"-9.7164"}},{"photo":"https://s3.amazonaws.com/uifaces/faces/twitter/itsajimithing/128.jpg","name":"Elijah Goodwin","speciality":"Program","location":{"name":"Thiel - Botsford","address":"039 Clare Parkways","city":"New Mireille","state":"HI","zip":"21788-8030","geoLat":"29.4427","geoLong":"-31.9590"}},{"photo":"https://s3.amazonaws.com/uifaces/faces/twitter/sterlingrules/128.jpg","name":"Heaven Pagac Miss","speciality":"Intranet","location":{"name":"Fritsch, Stanton and Hilll","address":"9792 Mohammed Club","city":"East Norma","state":"CA","zip":"67248-6216","geoLat":"21.9126","geoLong":"155.0738"}},{"photo":"https://s3.amazonaws.com/uifaces/faces/twitter/carlosm/128.jpg","name":"Mr. William Kertzmann","speciality":"Directives","location":{"name":"Larkin, Jerde and Hamill","address":"27392 Magnus Stravenue","city":"New Guadalupe bury","state":"ME","zip":"50163","geoLat":"20.9635","geoLong":"-100.8987"}},{"photo":"https://s3.amazonaws.com/uifaces/faces/twitter/giuliusa/128.jpg","name":"Amelia Hagenes","speciality":"Usability","location":{"name":"Ebert Group","address":"06354 Collins Flat","city":"South Lance","state":"AR","zip":"54333-3126","geoLat":"-50.8010","geoLong":"-63.0782"}},{"photo":"https://s3.amazonaws.com/uifaces/faces/twitter/jesseddy/128.jpg","name":"Glennie Fahey","speciality":"Usability","location":{"name":"Mills - Vandervort","address":"86431 Homenick Station","city":"Blanda bury","state":"WI","zip":"30951","geoLat":"59.9205","geoLong":"114.4366"}},{"photo":"https://s3.amazonaws.com/uifaces/faces/twitter/geneseleznev/128.jpg","name":"Felicia Walsh Mrs.","speciality":"Intranet","location":{"name":"Bruen - Stanton","address":"0701 Sanford Mountains","city":"New Kristoffer","state":"PA","zip":"13780-9781","geoLat":"10.3729","geoLong":"-119.8726"}},{"photo":"https://s3.amazonaws.com/uifaces/faces/twitter/snowshade/128.jpg","name":"Kenna Ferry","speciality":"Data","location":{"name":"Nienow - Larkin","address":"193 Hermiston Crest","city":"Lake Meta","state":"TX","zip":"49890","geoLat":"60.9500","geoLong":"-101.3504"}},{"photo":"https://s3.amazonaws.com/uifaces/faces/twitter/dimaposnyy/128.jpg","name":"Dr. Raymundo Schoen","speciality":"Creative","location":{"name":"Harvey, Parker and Hoppe","address":"3721 Donnelly Drives","city":"Bogan burgh","state":"OR","zip":"31344-4061","geoLat":"28.3683","geoLong":"-173.3321"}},{"photo":"https://s3.amazonaws.com/uifaces/faces/twitter/gaborenton/128.jpg","name":"Ludwig Ankunding","speciality":"Identity","location":{"name":"Torp and Sons","address":"565 Hansen Villages","city":"Schulist side","state":"DE","zip":"42669-0744","geoLat":"-83.0476","geoLong":"10.1754"}},{"photo":"https://s3.amazonaws.com/uifaces/faces/twitter/uxalex/128.jpg","name":"Eleazar Hills","speciality":"Metrics","location":{"name":"Cartwright, Bartoletti and Nitzsche","address":"0418 Kling Pine","city":"South Jewel shire","state":"MD","zip":"08967","geoLat":"51.0071","geoLong":"-46.5899"}},{"photo":"https://s3.amazonaws.com/uifaces/faces/twitter/kirangopal/128.jpg","name":"Wilfred Crooks","speciality":"Directives","location":{"name":"Abshire and Sons","address":"33475 Doug Tunnel","city":"Bernhard port","state":"KS","zip":"36488","geoLat":"87.0846","geoLong":"174.5557"}},{"photo":"https://s3.amazonaws.com/uifaces/faces/twitter/marakasina/128.jpg","name":"Nellie Mante","speciality":"Optimization","location":{"name":"Effertz, Hammes and Macejkovic","address":"11884 Lesch Center","city":"Port Adam town","state":"RI","zip":"89405","geoLat":"-87.9170","geoLong":"85.4468"}},{"photo":"https://s3.amazonaws.com/uifaces/faces/twitter/tanveerrao/128.jpg","name":"Rosalyn Gerhold","speciality":"Functionality","location":{"name":"Yost, Kovacek and Wilkinson","address":"5645 Ben Loaf","city":"Toney haven","state":"AR","zip":"06680-1591","geoLat":"-49.0335","geoLong":"37.0747"}},{"photo":"https://s3.amazonaws.com/uifaces/faces/twitter/scrapdnb/128.jpg","name":"Percival Kreiger","speciality":"Communications","location":{"name":"Collier - Hills","address":"2627 Rodger Way","city":"Omer borough","state":"KS","zip":"88601","geoLat":"82.4368","geoLong":"-56.2636"}},{"photo":"https://s3.amazonaws.com/uifaces/faces/twitter/ankitind/128.jpg","name":"Sadye Schulist Miss","speciality":"Optimization","location":{"name":"Wolf, Mayert and Abernathy","address":"832 Bernier Stravenue","city":"East Axel","state":"CT","zip":"54452","geoLat":"-60.5737","geoLong":"-51.3097"}},{"photo":"https://s3.amazonaws.com/uifaces/faces/twitter/r_oy/128.jpg","name":"Ken Kihn Dr.","speciality":"Accounts","location":{"name":"Schumm, Gutkowski and Prosacco","address":"321 Satterfield Estate","city":"Kunde town","state":"RI","zip":"30565","geoLat":"42.4119","geoLong":"93.6349"}},{"photo":"https://s3.amazonaws.com/uifaces/faces/twitter/myastro/128.jpg","name":"Malachi Jerde Ms.","speciality":"Directives","location":{"name":"Bechtelar - Bernier","address":"93874 Kulas Hills","city":"Quitzon mouth","state":"ID","zip":"20429","geoLat":"-8.6955","geoLong":"-30.8479"}},{"photo":"https://s3.amazonaws.com/uifaces/faces/twitter/markolschesky/128.jpg","name":"Jacques Macejkovic","speciality":"Identity","location":{"name":"Boyle, Prohaska and Runolfsdottir","address":"724 Aleen Squares","city":"O'Reilly side","state":"DE","zip":"58123","geoLat":"-37.6174","geoLong":"118.5256"}},{"photo":"https://s3.amazonaws.com/uifaces/faces/twitter/nckjrvs/128.jpg","name":"Orlo Swift","speciality":"Creative","location":{"name":"Leffler - Schmeler","address":"0657 Quitzon Highway","city":"North Rhianna","state":"VA","zip":"21974","geoLat":"-78.8806","geoLong":"-82.1813"}},{"photo":"https://s3.amazonaws.com/uifaces/faces/twitter/VMilescu/128.jpg","name":"Nadia Cummings","speciality":"Branding","location":{"name":"Rau - Lind","address":"507 Kellie Field","city":"East Crawford furt","state":"TN","zip":"86846","geoLat":"-38.2415","geoLong":"76.1210"}}]